{
    "type": "FeatureCollection",
    "crs": {
        "type": "name",
        "properties": {
            "name": "urn:ogc:def:crs:OGC:1.3:CRS84"
        }
    },
    "features": [
        {
            "type": "Feature",
            "properties": {
                "sna": "YouBike2.0_下庄市場",
                "sno": 500201001,
                "available_rent_general_bikes": 7,
                "available_return_bikes": 13,
                "total_bikes": 20
            },
            "geometry": {
                "type": "Point",
                "coordinates": [
                    121.3999,
                    25.14678
                ]
            }
        },
        {
            "type": "Feature",
            "properties": {
                "sna": "YouBike2.0_八里行政中心",
                "sno": 500201002,
                "available_rent_general_bikes": 6,
                "available_return_bikes": 11,
                "total_bikes": 17
            },
            "geometry": {
                "type": "Point",
                "coordinates": [
                    121.40721,
                    25.15397
                ]
            }
        },
        {
            "type": "Feature",
            "properties": {
                "sna": "YouBike2.0_八里中庄市場綜合大樓",
                "sno": 500201003,
                "available_rent_general_bikes": 9,
                "available_return_bikes": 11,
                "total_bikes": 20
            },
            "geometry": {
                "type": "Point",
                "coordinates": [
                    121.41407,
                    25.15993
                ]
            }
        },
        {
            "type": "Feature",
            "properties": {
                "sna": "YouBike2.0_大崁國小",
                "sno": 500201004,
                "available_rent_general_bikes": 2,
                "available_return_bikes": 18,
                "total_bikes": 20
            },
            "geometry": {
                "type": "Point",
                "coordinates": [
                    121.41938,
                    25.16064
                ]
            }
        },
        {
            "type": "Feature",
            "properties": {
                "sna": "YouBike2.0_龍形停車場",
                "sno": 500201006,
                "available_rent_general_bikes": 3,
                "available_return_bikes": 31,
                "total_bikes": 34
            },
            "geometry": {
                "type": "Point",
                "coordinates": [
                    121.4513,
                    25.13041
                ]
            }
        },
        {
            "type": "Feature",
            "properties": {
                "sna": "YouBike2.0_十三行博物館",
                "sno": 500201007,
                "available_rent_general_bikes": 9,
                "available_return_bikes": 37,
                "total_bikes": 46
            },
            "geometry": {
                "type": "Point",
                "coordinates": [
                    121.406,
                    25.157
                ]
            }
        },
        {
            "type": "Feature",
            "properties": {
                "sna": "YouBike2.0_八里區民活動中心",
                "sno": 500201008,
                "available_rent_general_bikes": 5,
                "available_return_bikes": 7,
                "total_bikes": 12
            },
            "geometry": {
                "type": "Point",
                "coordinates": [
                    121.40126,
                    25.14933
                ]
            }
        },
        {
            "type": "Feature",
            "properties": {
                "sna": "YouBike2.0_挖仔尾自然生態保留區",
                "sno": 500201009,
                "available_rent_general_bikes": 4,
                "available_return_bikes": 9,
                "total_bikes": 13
            },
            "geometry": {
                "type": "Point",
                "coordinates": [
                    121.41586,
                    25.16419
                ]
            }
        },
        {
            "type": "Feature",
            "properties": {
                "sna": "YouBike2.0_文昌公園",
                "sno": 500201010,
                "available_rent_general_bikes": 12,
                "available_return_bikes": 3,
                "total_bikes": 15
            },
            "geometry": {
                "type": "Point",
                "coordinates": [
                    121.41033,
                    25.15709
                ]
            }
        },
        {
            "type": "Feature",
            "properties": {
                "sna": "YouBike2.0_八里國小",
                "sno": 500201011,
                "available_rent_general_bikes": 5,
                "available_return_bikes": 8,
                "total_bikes": 13
            },
            "geometry": {
                "type": "Point",
                "coordinates": [
                    121.4026,
                    25.14896
                ]
            }
        },
        {
            "type": "Feature",
            "properties": {
                "sna": "YouBike2.0_八里文化公園(棒球場)",
                "sno": 500201012,
                "available_rent_general_bikes": 2,
                "available_return_bikes": 25,
                "total_bikes": 27
            },
            "geometry": {
                "type": "Point",
                "coordinates": [
                    121.41251,
                    25.16359
                ]
            }
        },
        {
            "type": "Feature",
            "properties": {
                "sna": "YouBike2.0_水興公",
                "sno": 500201013,
                "available_rent_general_bikes": 3,
                "available_return_bikes": 9,
                "total_bikes": 12
            },
            "geometry": {
                "type": "Point",
                "coordinates": [
                    121.42509,
                    25.16208
                ]
            }
        },
        {
            "type": "Feature",
            "properties": {
                "sna": "YouBike2.0_片仔溝公園",
                "sno": 500201014,
                "available_rent_general_bikes": 11,
                "available_return_bikes": 7,
                "total_bikes": 18
            },
            "geometry": {
                "type": "Point",
                "coordinates": [
                    121.40581,
                    25.1502
                ]
            }
        },
        {
            "type": "Feature",
            "properties": {
                "sna": "YouBike2.0_八里福朋喜來登酒店",
                "sno": 500201015,
                "available_rent_general_bikes": 3,
                "available_return_bikes": 14,
                "total_bikes": 17
            },
            "geometry": {
                "type": "Point",
                "coordinates": [
                    121.42945,
                    25.15922
                ]
            }
        },
        {
            "type": "Feature",
            "properties": {
                "sna": "YouBike2.0_訊塘社區公園",
                "sno": 500201016,
                "available_rent_general_bikes": 6,
                "available_return_bikes": 4,
                "total_bikes": 10
            },
            "geometry": {
                "type": "Point",
                "coordinates": [
                    121.39609,
                    25.1455
                ]
            }
        },
        {
            "type": "Feature",
            "properties": {
                "sna": "YouBike2.0_商港公園(商港八商港一路口)",
                "sno": 500201017,
                "available_rent_general_bikes": 4,
                "available_return_bikes": 8,
                "total_bikes": 12
            },
            "geometry": {
                "type": "Point",
                "coordinates": [
                    121.40026,
                    25.15039
                ]
            }
        },
        {
            "type": "Feature",
            "properties": {
                "sna": "YouBike2.0_商港公園(商港七商港一路口)",
                "sno": 500201018,
                "available_rent_general_bikes": 8,
                "available_return_bikes": 6,
                "total_bikes": 14
            },
            "geometry": {
                "type": "Point",
                "coordinates": [
                    121.39841,
                    25.14916
                ]
            }
        },
        {
            "type": "Feature",
            "properties": {
                "sna": "YouBike2.0_渡船頭平面停車場",
                "sno": 500201019,
                "available_rent_general_bikes": 8,
                "available_return_bikes": 23,
                "total_bikes": 31
            },
            "geometry": {
                "type": "Point",
                "coordinates": [
                    121.43527,
                    25.15687
                ]
            }
        },
        {
            "type": "Feature",
            "properties": {
                "sna": "YouBike2.0_訊塘廣場(義民中華路口)",
                "sno": 500201020,
                "available_rent_general_bikes": 2,
                "available_return_bikes": 17,
                "total_bikes": 19
            },
            "geometry": {
                "type": "Point",
                "coordinates": [
                    121.39564,
                    25.14256
                ]
            }
        },
        {
            "type": "Feature",
            "properties": {
                "sna": "YouBike2.0_八里停五平面停車場",
                "sno": 500201021,
                "available_rent_general_bikes": 12,
                "available_return_bikes": 18,
                "total_bikes": 30
            },
            "geometry": {
                "type": "Point",
                "coordinates": [
                    121.41758,
                    25.15779
                ]
            }
        },
        {
            "type": "Feature",
            "properties": {
                "sna": "YouBike2.0_頂罟公園",
                "sno": 500201022,
                "available_rent_general_bikes": 5,
                "available_return_bikes": 8,
                "total_bikes": 13
            },
            "geometry": {
                "type": "Point",
                "coordinates": [
                    121.40413,
                    25.1533
                ]
            }
        },
        {
            "type": "Feature",
            "properties": {
                "sna": "YouBike2.0_淺水灣",
                "sno": 500202001,
                "available_rent_general_bikes": 26,
                "available_return_bikes": 15,
                "total_bikes": 41
            },
            "geometry": {
                "type": "Point",
                "coordinates": [
                    121.47131,
                    25.25232
                ]
            }
        },
        {
            "type": "Feature",
            "properties": {
                "sna": "YouBike2.0_三芝國中",
                "sno": 500202002,
                "available_rent_general_bikes": 6,
                "available_return_bikes": 6,
                "total_bikes": 12
            },
            "geometry": {
                "type": "Point",
                "coordinates": [
                    121.50182,
                    25.25898
                ]
            }
        },
        {
            "type": "Feature",
            "properties": {
                "sna": "YouBike2.0_櫻花水車公園",
                "sno": 500202003,
                "available_rent_general_bikes": 4,
                "available_return_bikes": 11,
                "total_bikes": 15
            },
            "geometry": {
                "type": "Point",
                "coordinates": [
                    121.50125,
                    25.25119
                ]
            }
        },
        {
            "type": "Feature",
            "properties": {
                "sna": "YouBike2.0_三芝兒一公園",
                "sno": 500202004,
                "available_rent_general_bikes": 12,
                "available_return_bikes": 3,
                "total_bikes": 15
            },
            "geometry": {
                "type": "Point",
                "coordinates": [
                    121.4994,
                    25.25719
                ]
            }
        },
        {
            "type": "Feature",
            "properties": {
                "sna": "YouBike2.0_三芝區公所",
                "sno": 500202005,
                "available_rent_general_bikes": 5,
                "available_return_bikes": 6,
                "total_bikes": 11
            },
            "geometry": {
                "type": "Point",
                "coordinates": [
                    121.50082,
                    25.25788
                ]
            }
        },
        {
            "type": "Feature",
            "properties": {
                "sna": "YouBike2.0_馬偕醫學院(第二教研大樓)",
                "sno": 500202006,
                "available_rent_general_bikes": 12,
                "available_return_bikes": 13,
                "total_bikes": 25
            },
            "geometry": {
                "type": "Point",
                "coordinates": [
                    121.49559,
                    25.25303
                ]
            }
        },
        {
            "type": "Feature",
            "properties": {
                "sna": "YouBike2.0_馬偕醫學院(圓環)",
                "sno": 500202007,
                "available_rent_general_bikes": 11,
                "available_return_bikes": 7,
                "total_bikes": 18
            },
            "geometry": {
                "type": "Point",
                "coordinates": [
                    121.49571,
                    25.25438
                ]
            }
        },
        {
            "type": "Feature",
            "properties": {
                "sna": "YouBike2.0_三芝兒三公園(三民街)",
                "sno": 500202008,
                "available_rent_general_bikes": 10,
                "available_return_bikes": 6,
                "total_bikes": 16
            },
            "geometry": {
                "type": "Point",
                "coordinates": [
                    121.50499,
                    25.25874
                ]
            }
        },
        {
            "type": "Feature",
            "properties": {
                "sna": "YouBike2.0_重新重安街口",
                "sno": 500203001,
                "available_rent_general_bikes": 9,
                "available_return_bikes": 18,
                "total_bikes": 27
            },
            "geometry": {
                "type": "Point",
                "coordinates": [
                    121.48975,
                    25.05844
                ]
            }
        },
        {
            "type": "Feature",
            "properties": {
                "sna": "YouBike2.0_三重高中",
                "sno": 500203002,
                "available_rent_general_bikes": 16,
                "available_return_bikes": 22,
                "total_bikes": 38
            },
            "geometry": {
                "type": "Point",
                "coordinates": [
                    121.49171,
                    25.05478
                ]
            }
        },
        {
            "type": "Feature",
            "properties": {
                "sna": "YouBike2.0_三重國民運動中心",
                "sno": 500203003,
                "available_rent_general_bikes": 11,
                "available_return_bikes": 25,
                "total_bikes": 36
            },
            "geometry": {
                "type": "Point",
                "coordinates": [
                    121.48849,
                    25.05439
                ]
            }
        },
        {
            "type": "Feature",
            "properties": {
                "sna": "YouBike2.0_捷運三重站(1號出口)",
                "sno": 500203004,
                "available_rent_general_bikes": 38,
                "available_return_bikes": 20,
                "total_bikes": 58
            },
            "geometry": {
                "type": "Point",
                "coordinates": [
                    121.48322,
                    25.05464
                ]
            }
        },
        {
            "type": "Feature",
            "properties": {
                "sna": "YouBike2.0_中興橋(環河南路254巷口)",
                "sno": 500203005,
                "available_rent_general_bikes": 4,
                "available_return_bikes": 19,
                "total_bikes": 23
            },
            "geometry": {
                "type": "Point",
                "coordinates": [
                    121.49138,
                    25.05052
                ]
            }
        },
        {
            "type": "Feature",
            "properties": {
                "sna": "YouBike2.0_疏洪東竹圍仔街口",
                "sno": 500203006,
                "available_rent_general_bikes": 12,
                "available_return_bikes": 9,
                "total_bikes": 21
            },
            "geometry": {
                "type": "Point",
                "coordinates": [
                    121.4864,
                    25.04861
                ]
            }
        },
        {
            "type": "Feature",
            "properties": {
                "sna": "YouBike2.0_環河福德南路口",
                "sno": 500203007,
                "available_rent_general_bikes": 8,
                "available_return_bikes": 20,
                "total_bikes": 28
            },
            "geometry": {
                "type": "Point",
                "coordinates": [
                    121.50217,
                    25.06029
                ]
            }
        },
        {
            "type": "Feature",
            "properties": {
                "sna": "YouBike2.0_光興國小",
                "sno": 500203008,
                "available_rent_general_bikes": 11,
                "available_return_bikes": 16,
                "total_bikes": 27
            },
            "geometry": {
                "type": "Point",
                "coordinates": [
                    121.49978,
                    25.06027
                ]
            }
        },
        {
            "type": "Feature",
            "properties": {
                "sna": "YouBike2.0_三光國小(金滿意)",
                "sno": 500203009,
                "available_rent_general_bikes": 12,
                "available_return_bikes": 21,
                "total_bikes": 33
            },
            "geometry": {
                "type": "Point",
                "coordinates": [
                    121.49687,
                    25.05596
                ]
            }
        },
        {
            "type": "Feature",
            "properties": {
                "sna": "YouBike2.0_聯邦公園",
                "sno": 500203010,
                "available_rent_general_bikes": 17,
                "available_return_bikes": 37,
                "total_bikes": 54
            },
            "geometry": {
                "type": "Point",
                "coordinates": [
                    121.48371,
                    25.06445
                ]
            }
        },
        {
            "type": "Feature",
            "properties": {
                "sna": "YouBike2.0_興華公園",
                "sno": 500203011,
                "available_rent_general_bikes": 12,
                "available_return_bikes": 28,
                "total_bikes": 40
            },
            "geometry": {
                "type": "Point",
                "coordinates": [
                    121.4831,
                    25.06013
                ]
            }
        },
        {
            "type": "Feature",
            "properties": {
                "sna": "YouBike2.0_文中小停車場",
                "sno": 500203012,
                "available_rent_general_bikes": 7,
                "available_return_bikes": 37,
                "total_bikes": 44
            },
            "geometry": {
                "type": "Point",
                "coordinates": [
                    121.48255,
                    25.05899
                ]
            }
        },
        {
            "type": "Feature",
            "properties": {
                "sna": "YouBike2.0_三重行政中心",
                "sno": 500203013,
                "available_rent_general_bikes": 12,
                "available_return_bikes": 23,
                "total_bikes": 35
            },
            "geometry": {
                "type": "Point",
                "coordinates": [
                    121.48823,
                    25.06057
                ]
            }
        },
        {
            "type": "Feature",
            "properties": {
                "sna": "YouBike2.0_捷運菜寮站(3號出口)",
                "sno": 500203014,
                "available_rent_general_bikes": 7,
                "available_return_bikes": 25,
                "total_bikes": 32
            },
            "geometry": {
                "type": "Point",
                "coordinates": [
                    121.4922,
                    25.06047
                ]
            }
        },
        {
            "type": "Feature",
            "properties": {
                "sna": "YouBike2.0_三重綜合體育館",
                "sno": 500203015,
                "available_rent_general_bikes": 29,
                "available_return_bikes": 22,
                "total_bikes": 51
            },
            "geometry": {
                "type": "Point",
                "coordinates": [
                    121.49193,
                    25.06145
                ]
            }
        },
        {
            "type": "Feature",
            "properties": {
                "sna": "YouBike2.0_三重商工(後竹圍街)",
                "sno": 500203016,
                "available_rent_general_bikes": 8,
                "available_return_bikes": 22,
                "total_bikes": 30
            },
            "geometry": {
                "type": "Point",
                "coordinates": [
                    121.47976,
                    25.07031
                ]
            }
        },
        {
            "type": "Feature",
            "properties": {
                "sna": "YouBike2.0_力行大勇街口",
                "sno": 500203017,
                "available_rent_general_bikes": 3,
                "available_return_bikes": 30,
                "total_bikes": 33
            },
            "geometry": {
                "type": "Point",
                "coordinates": [
                    121.48151,
                    25.07193
                ]
            }
        },
        {
            "type": "Feature",
            "properties": {
                "sna": "YouBike2.0_後竹圍市民活動中心",
                "sno": 500203018,
                "available_rent_general_bikes": 0,
                "available_return_bikes": 37,
                "total_bikes": 37
            },
            "geometry": {
                "type": "Point",
                "coordinates": [
                    121.48576,
                    25.07246
                ]
            }
        },
        {
            "type": "Feature",
            "properties": {
                "sna": "YouBike2.0_和平公園",
                "sno": 500203019,
                "available_rent_general_bikes": 1,
                "available_return_bikes": 16,
                "total_bikes": 17
            },
            "geometry": {
                "type": "Point",
                "coordinates": [
                    121.48571,
                    25.07088
                ]
            }
        },
        {
            "type": "Feature",
            "properties": {
                "sna": "YouBike2.0_六合公園",
                "sno": 500203020,
                "available_rent_general_bikes": 4,
                "available_return_bikes": 40,
                "total_bikes": 44
            },
            "geometry": {
                "type": "Point",
                "coordinates": [
                    121.48759,
                    25.0695
                ]
            }
        },
        {
            "type": "Feature",
            "properties": {
                "sna": "YouBike2.0_三張公園",
                "sno": 500203021,
                "available_rent_general_bikes": 11,
                "available_return_bikes": 28,
                "total_bikes": 39
            },
            "geometry": {
                "type": "Point",
                "coordinates": [
                    121.49094,
                    25.07051
                ]
            }
        },
        {
            "type": "Feature",
            "properties": {
                "sna": "YouBike2.0_厚德公園",
                "sno": 500203022,
                "available_rent_general_bikes": 5,
                "available_return_bikes": 34,
                "total_bikes": 39
            },
            "geometry": {
                "type": "Point",
                "coordinates": [
                    121.4912,
                    25.07199
                ]
            }
        },
        {
            "type": "Feature",
            "properties": {
                "sna": "YouBike2.0_修德國小",
                "sno": 500203023,
                "available_rent_general_bikes": 6,
                "available_return_bikes": 27,
                "total_bikes": 33
            },
            "geometry": {
                "type": "Point",
                "coordinates": [
                    121.49045,
                    25.0653
                ]
            }
        },
        {
            "type": "Feature",
            "properties": {
                "sna": "YouBike2.0_明志國中",
                "sno": 500203024,
                "available_rent_general_bikes": 22,
                "available_return_bikes": 33,
                "total_bikes": 55
            },
            "geometry": {
                "type": "Point",
                "coordinates": [
                    121.48898,
                    25.0634
                ]
            }
        },
        {
            "type": "Feature",
            "properties": {
                "sna": "YouBike2.0_龍門龍濱路口",
                "sno": 500203025,
                "available_rent_general_bikes": 0,
                "available_return_bikes": 30,
                "total_bikes": 30
            },
            "geometry": {
                "type": "Point",
                "coordinates": [
                    121.50098,
                    25.07348
                ]
            }
        },
        {
            "type": "Feature",
            "properties": {
                "sna": "YouBike2.0_三德公園",
                "sno": 500203026,
                "available_rent_general_bikes": 7,
                "available_return_bikes": 29,
                "total_bikes": 36
            },
            "geometry": {
                "type": "Point",
                "coordinates": [
                    121.50076924045402,
                    25.075005324200696
                ]
            }
        },
        {
            "type": "Feature",
            "properties": {
                "sna": "YouBike2.0_開元市民活動中心",
                "sno": 500203027,
                "available_rent_general_bikes": 5,
                "available_return_bikes": 30,
                "total_bikes": 35
            },
            "geometry": {
                "type": "Point",
                "coordinates": [
                    121.50356,
                    25.06607
                ]
            }
        },
        {
            "type": "Feature",
            "properties": {
                "sna": "YouBike2.0_信義公園",
                "sno": 500203028,
                "available_rent_general_bikes": 2,
                "available_return_bikes": 30,
                "total_bikes": 32
            },
            "geometry": {
                "type": "Point",
                "coordinates": [
                    121.49875,
                    25.0648
                ]
            }
        },
        {
            "type": "Feature",
            "properties": {
                "sna": "YouBike2.0_集成成功路口",
                "sno": 500203029,
                "available_rent_general_bikes": 15,
                "available_return_bikes": 19,
                "total_bikes": 34
            },
            "geometry": {
                "type": "Point",
                "coordinates": [
                    121.48821,
                    25.05154
                ]
            }
        },
        {
            "type": "Feature",
            "properties": {
                "sna": "YouBike2.0_翔譽雙子星",
                "sno": 500203030,
                "available_rent_general_bikes": 3,
                "available_return_bikes": 30,
                "total_bikes": 33
            },
            "geometry": {
                "type": "Point",
                "coordinates": [
                    121.49292,
                    25.05364
                ]
            }
        },
        {
            "type": "Feature",
            "properties": {
                "sna": "YouBike2.0_穀保家商",
                "sno": 500203031,
                "available_rent_general_bikes": 28,
                "available_return_bikes": 5,
                "total_bikes": 33
            },
            "geometry": {
                "type": "Point",
                "coordinates": [
                    121.47103,
                    25.0681
                ]
            }
        },
        {
            "type": "Feature",
            "properties": {
                "sna": "YouBike2.0_正義公園",
                "sno": 500203032,
                "available_rent_general_bikes": 10,
                "available_return_bikes": 36,
                "total_bikes": 46
            },
            "geometry": {
                "type": "Point",
                "coordinates": [
                    121.49782,
                    25.06855
                ]
            }
        },
        {
            "type": "Feature",
            "properties": {
                "sna": "YouBike2.0_大智公園",
                "sno": 500203033,
                "available_rent_general_bikes": 5,
                "available_return_bikes": 25,
                "total_bikes": 30
            },
            "geometry": {
                "type": "Point",
                "coordinates": [
                    121.49445,
                    25.06361
                ]
            }
        },
        {
            "type": "Feature",
            "properties": {
                "sna": "YouBike2.0_捷運三重國小站",
                "sno": 500203034,
                "available_rent_general_bikes": 3,
                "available_return_bikes": 30,
                "total_bikes": 33
            },
            "geometry": {
                "type": "Point",
                "coordinates": [
                    121.49713,
                    25.07042
                ]
            }
        },
        {
            "type": "Feature",
            "properties": {
                "sna": "YouBike2.0_碧華公園",
                "sno": 500203035,
                "available_rent_general_bikes": 0,
                "available_return_bikes": 30,
                "total_bikes": 30
            },
            "geometry": {
                "type": "Point",
                "coordinates": [
                    121.48749,
                    25.08374
                ]
            }
        },
        {
            "type": "Feature",
            "properties": {
                "sna": "YouBike2.0_三重永豐公園",
                "sno": 500203036,
                "available_rent_general_bikes": 8,
                "available_return_bikes": 22,
                "total_bikes": 30
            },
            "geometry": {
                "type": "Point",
                "coordinates": [
                    121.47816,
                    25.07463
                ]
            }
        },
        {
            "type": "Feature",
            "properties": {
                "sna": "YouBike2.0_先嗇宮",
                "sno": 500203037,
                "available_rent_general_bikes": 9,
                "available_return_bikes": 8,
                "total_bikes": 17
            },
            "geometry": {
                "type": "Point",
                "coordinates": [
                    121.47601,
                    25.05119
                ]
            }
        },
        {
            "type": "Feature",
            "properties": {
                "sna": "YouBike2.0_中興北街42巷17弄",
                "sno": 500203038,
                "available_rent_general_bikes": 8,
                "available_return_bikes": 13,
                "total_bikes": 21
            },
            "geometry": {
                "type": "Point",
                "coordinates": [
                    121.46892,
                    25.05006
                ]
            }
        },
        {
            "type": "Feature",
            "properties": {
                "sna": "YouBike2.0_慈愛公園",
                "sno": 500203039,
                "available_rent_general_bikes": 1,
                "available_return_bikes": 22,
                "total_bikes": 23
            },
            "geometry": {
                "type": "Point",
                "coordinates": [
                    121.48461,
                    25.08119
                ]
            }
        },
        {
            "type": "Feature",
            "properties": {
                "sna": "YouBike2.0_進安公園",
                "sno": 500203040,
                "available_rent_general_bikes": 1,
                "available_return_bikes": 21,
                "total_bikes": 22
            },
            "geometry": {
                "type": "Point",
                "coordinates": [
                    121.49377,
                    25.08603
                ]
            }
        },
        {
            "type": "Feature",
            "properties": {
                "sna": "YouBike2.0_三重五常公園",
                "sno": 500203041,
                "available_rent_general_bikes": 10,
                "available_return_bikes": 21,
                "total_bikes": 31
            },
            "geometry": {
                "type": "Point",
                "coordinates": [
                    121.49615,
                    25.08065
                ]
            }
        },
        {
            "type": "Feature",
            "properties": {
                "sna": "YouBike2.0_五福里(五華街)",
                "sno": 500203042,
                "available_rent_general_bikes": 5,
                "available_return_bikes": 31,
                "total_bikes": 36
            },
            "geometry": {
                "type": "Point",
                "coordinates": [
                    121.4939,
                    25.08173
                ]
            }
        },
        {
            "type": "Feature",
            "properties": {
                "sna": "YouBike2.0_碧華公園(集勇街)",
                "sno": 500203043,
                "available_rent_general_bikes": 0,
                "available_return_bikes": 36,
                "total_bikes": 36
            },
            "geometry": {
                "type": "Point",
                "coordinates": [
                    121.48554,
                    25.08415
                ]
            }
        },
        {
            "type": "Feature",
            "properties": {
                "sna": "YouBike2.0_新北高中",
                "sno": 500203044,
                "available_rent_general_bikes": 77,
                "available_return_bikes": 8,
                "total_bikes": 85
            },
            "geometry": {
                "type": "Point",
                "coordinates": [
                    121.48953,
                    25.08723
                ]
            }
        },
        {
            "type": "Feature",
            "properties": {
                "sna": "YouBike2.0_三重商工",
                "sno": 500203045,
                "available_rent_general_bikes": 30,
                "available_return_bikes": 43,
                "total_bikes": 73
            },
            "geometry": {
                "type": "Point",
                "coordinates": [
                    121.48071,
                    25.06868
                ]
            }
        },
        {
            "type": "Feature",
            "properties": {
                "sna": "YouBike2.0_二重國中",
                "sno": 500203046,
                "available_rent_general_bikes": 17,
                "available_return_bikes": 21,
                "total_bikes": 38
            },
            "geometry": {
                "type": "Point",
                "coordinates": [
                    121.48047,
                    25.06596
                ]
            }
        },
        {
            "type": "Feature",
            "properties": {
                "sna": "YouBike2.0_自強溪尾街口",
                "sno": 500203047,
                "available_rent_general_bikes": 0,
                "available_return_bikes": 38,
                "total_bikes": 38
            },
            "geometry": {
                "type": "Point",
                "coordinates": [
                    121.49016,
                    25.07822
                ]
            }
        },
        {
            "type": "Feature",
            "properties": {
                "sna": "YouBike2.0_捷運三和國中站(1號出口)",
                "sno": 500203048,
                "available_rent_general_bikes": 60,
                "available_return_bikes": 28,
                "total_bikes": 88
            },
            "geometry": {
                "type": "Point",
                "coordinates": [
                    121.4878,
                    25.07588
                ]
            }
        },
        {
            "type": "Feature",
            "properties": {
                "sna": "YouBike2.0_永盛公園",
                "sno": 500203049,
                "available_rent_general_bikes": 3,
                "available_return_bikes": 38,
                "total_bikes": 41
            },
            "geometry": {
                "type": "Point",
                "coordinates": [
                    121.4843,
                    25.07613
                ]
            }
        },
        {
            "type": "Feature",
            "properties": {
                "sna": "YouBike2.0_捷運先嗇宮站(2號出口)",
                "sno": 500203050,
                "available_rent_general_bikes": 5,
                "available_return_bikes": 59,
                "total_bikes": 64
            },
            "geometry": {
                "type": "Point",
                "coordinates": [
                    121.47099,
                    25.04607
                ]
            }
        },
        {
            "type": "Feature",
            "properties": {
                "sna": "YouBike2.0_藍天大樓",
                "sno": 500203051,
                "available_rent_general_bikes": 7,
                "available_return_bikes": 16,
                "total_bikes": 23
            },
            "geometry": {
                "type": "Point",
                "coordinates": [
                    121.47017,
                    25.0531
                ]
            }
        },
        {
            "type": "Feature",
            "properties": {
                "sna": "YouBike2.0_中興北街175巷口",
                "sno": 500203052,
                "available_rent_general_bikes": 17,
                "available_return_bikes": 19,
                "total_bikes": 36
            },
            "geometry": {
                "type": "Point",
                "coordinates": [
                    121.4696,
                    25.05595
                ]
            }
        },
        {
            "type": "Feature",
            "properties": {
                "sna": "YouBike2.0_同安公園",
                "sno": 500203053,
                "available_rent_general_bikes": 2,
                "available_return_bikes": 36,
                "total_bikes": 38
            },
            "geometry": {
                "type": "Point",
                "coordinates": [
                    121.49907,
                    25.05732
                ]
            }
        },
        {
            "type": "Feature",
            "properties": {
                "sna": "YouBike2.0_東海高中",
                "sno": 500203054,
                "available_rent_general_bikes": 17,
                "available_return_bikes": 13,
                "total_bikes": 30
            },
            "geometry": {
                "type": "Point",
                "coordinates": [
                    121.47942,
                    25.06484
                ]
            }
        },
        {
            "type": "Feature",
            "properties": {
                "sna": "YouBike2.0_二重國小",
                "sno": 500203055,
                "available_rent_general_bikes": 15,
                "available_return_bikes": 27,
                "total_bikes": 42
            },
            "geometry": {
                "type": "Point",
                "coordinates": [
                    121.47766,
                    25.06598
                ]
            }
        },
        {
            "type": "Feature",
            "properties": {
                "sna": "YouBike2.0_新北市立圖書館三重分館",
                "sno": 500203056,
                "available_rent_general_bikes": 9,
                "available_return_bikes": 41,
                "total_bikes": 50
            },
            "geometry": {
                "type": "Point",
                "coordinates": [
                    121.49553,
                    25.0661
                ]
            }
        },
        {
            "type": "Feature",
            "properties": {
                "sna": "YouBike2.0_龍門公園",
                "sno": 500203057,
                "available_rent_general_bikes": 8,
                "available_return_bikes": 37,
                "total_bikes": 45
            },
            "geometry": {
                "type": "Point",
                "coordinates": [
                    121.49848,
                    25.07482
                ]
            }
        },
        {
            "type": "Feature",
            "properties": {
                "sna": "YouBike2.0_永福國小",
                "sno": 500203058,
                "available_rent_general_bikes": 0,
                "available_return_bikes": 30,
                "total_bikes": 30
            },
            "geometry": {
                "type": "Point",
                "coordinates": [
                    121.48032,
                    25.07771
                ]
            }
        },
        {
            "type": "Feature",
            "properties": {
                "sna": "YouBike2.0_太陽公園",
                "sno": 500203059,
                "available_rent_general_bikes": 0,
                "available_return_bikes": 43,
                "total_bikes": 43
            },
            "geometry": {
                "type": "Point",
                "coordinates": [
                    121.4856,
                    25.08645
                ]
            }
        },
        {
            "type": "Feature",
            "properties": {
                "sna": "YouBike2.0_捷運三重站(3號出口)",
                "sno": 500203060,
                "available_rent_general_bikes": 2,
                "available_return_bikes": 18,
                "total_bikes": 20
            },
            "geometry": {
                "type": "Point",
                "coordinates": [
                    121.48474,
                    25.05588
                ]
            }
        },
        {
            "type": "Feature",
            "properties": {
                "sna": "YouBike2.0_仁愛街112巷",
                "sno": 500203061,
                "available_rent_general_bikes": 8,
                "available_return_bikes": 17,
                "total_bikes": 25
            },
            "geometry": {
                "type": "Point",
                "coordinates": [
                    121.49488,
                    25.07486
                ]
            }
        },
        {
            "type": "Feature",
            "properties": {
                "sna": "YouBike2.0_頂崁公園",
                "sno": 500203062,
                "available_rent_general_bikes": 8,
                "available_return_bikes": 16,
                "total_bikes": 24
            },
            "geometry": {
                "type": "Point",
                "coordinates": [
                    121.4756,
                    25.05493
                ]
            }
        },
        {
            "type": "Feature",
            "properties": {
                "sna": "YouBike2.0_重陽國小",
                "sno": 500203063,
                "available_rent_general_bikes": 0,
                "available_return_bikes": 25,
                "total_bikes": 25
            },
            "geometry": {
                "type": "Point",
                "coordinates": [
                    121.48434,
                    25.06625
                ]
            }
        },
        {
            "type": "Feature",
            "properties": {
                "sna": "YouBike2.0_力行地下停車場",
                "sno": 500203064,
                "available_rent_general_bikes": 12,
                "available_return_bikes": 8,
                "total_bikes": 20
            },
            "geometry": {
                "type": "Point",
                "coordinates": [
                    121.48287,
                    25.07787
                ]
            }
        },
        {
            "type": "Feature",
            "properties": {
                "sna": "YouBike2.0_三重親水公園",
                "sno": 500203065,
                "available_rent_general_bikes": 7,
                "available_return_bikes": 10,
                "total_bikes": 17
            },
            "geometry": {
                "type": "Point",
                "coordinates": [
                    121.49039,
                    25.09114
                ]
            }
        },
        {
            "type": "Feature",
            "properties": {
                "sna": "YouBike2.0_中正北路193巷(愛買三重店)",
                "sno": 500203066,
                "available_rent_general_bikes": 17,
                "available_return_bikes": 18,
                "total_bikes": 35
            },
            "geometry": {
                "type": "Point",
                "coordinates": [
                    121.47599,
                    25.07136
                ]
            }
        },
        {
            "type": "Feature",
            "properties": {
                "sna": "YouBike2.0_三重商工地下停車場",
                "sno": 500203067,
                "available_rent_general_bikes": 14,
                "available_return_bikes": 6,
                "total_bikes": 20
            },
            "geometry": {
                "type": "Point",
                "coordinates": [
                    121.48352,
                    25.06966
                ]
            }
        },
        {
            "type": "Feature",
            "properties": {
                "sna": "YouBike2.0_三重棒球場",
                "sno": 500203068,
                "available_rent_general_bikes": 6,
                "available_return_bikes": 17,
                "total_bikes": 23
            },
            "geometry": {
                "type": "Point",
                "coordinates": [
                    121.4815,
                    25.0613
                ]
            }
        },
        {
            "type": "Feature",
            "properties": {
                "sna": "YouBike2.0_溪尾街196巷/仁美街口",
                "sno": 500203069,
                "available_rent_general_bikes": 7,
                "available_return_bikes": 11,
                "total_bikes": 18
            },
            "geometry": {
                "type": "Point",
                "coordinates": [
                    121.48587,
                    25.0802
                ]
            }
        },
        {
            "type": "Feature",
            "properties": {
                "sna": "YouBike2.0_六張公園",
                "sno": 500203070,
                "available_rent_general_bikes": 2,
                "available_return_bikes": 40,
                "total_bikes": 42
            },
            "geometry": {
                "type": "Point",
                "coordinates": [
                    121.49405,
                    25.06966
                ]
            }
        },
        {
            "type": "Feature",
            "properties": {
                "sna": "YouBike2.0_自然公園",
                "sno": 500203071,
                "available_rent_general_bikes": 7,
                "available_return_bikes": 15,
                "total_bikes": 22
            },
            "geometry": {
                "type": "Point",
                "coordinates": [
                    121.48799,
                    25.08984
                ]
            }
        },
        {
            "type": "Feature",
            "properties": {
                "sna": "YouBike2.0_仁美街/三和路四段145巷口",
                "sno": 500203072,
                "available_rent_general_bikes": 0,
                "available_return_bikes": 12,
                "total_bikes": 12
            },
            "geometry": {
                "type": "Point",
                "coordinates": [
                    121.48636,
                    25.07872
                ]
            }
        },
        {
            "type": "Feature",
            "properties": {
                "sna": "YouBike2.0_光明市場",
                "sno": 500203073,
                "available_rent_general_bikes": 14,
                "available_return_bikes": 11,
                "total_bikes": 25
            },
            "geometry": {
                "type": "Point",
                "coordinates": [
                    121.49181,
                    25.05734
                ]
            }
        },
        {
            "type": "Feature",
            "properties": {
                "sna": "YouBike2.0_元富一街/仁義街79巷口",
                "sno": 500203074,
                "available_rent_general_bikes": 3,
                "available_return_bikes": 10,
                "total_bikes": 13
            },
            "geometry": {
                "type": "Point",
                "coordinates": [
                    121.49955,
                    25.08006
                ]
            }
        },
        {
            "type": "Feature",
            "properties": {
                "sna": "YouBike2.0_國隆大仁街口",
                "sno": 500203075,
                "available_rent_general_bikes": 2,
                "available_return_bikes": 12,
                "total_bikes": 14
            },
            "geometry": {
                "type": "Point",
                "coordinates": [
                    121.492,
                    25.06468
                ]
            }
        },
        {
            "type": "Feature",
            "properties": {
                "sna": "YouBike2.0_三和慈愛街口",
                "sno": 500203076,
                "available_rent_general_bikes": 2,
                "available_return_bikes": 9,
                "total_bikes": 11
            },
            "geometry": {
                "type": "Point",
                "coordinates": [
                    121.48417,
                    25.07814
                ]
            }
        },
        {
            "type": "Feature",
            "properties": {
                "sna": "YouBike2.0_三重社會福利服務中心",
                "sno": 500203077,
                "available_rent_general_bikes": 0,
                "available_return_bikes": 10,
                "total_bikes": 10
            },
            "geometry": {
                "type": "Point",
                "coordinates": [
                    121.49128,
                    25.07781
                ]
            }
        },
        {
            "type": "Feature",
            "properties": {
                "sna": "YouBike2.0_捷運三和國中站(2號出口)",
                "sno": 500203078,
                "available_rent_general_bikes": 11,
                "available_return_bikes": 5,
                "total_bikes": 16
            },
            "geometry": {
                "type": "Point",
                "coordinates": [
                    121.48635,
                    25.07703
                ]
            }
        },
        {
            "type": "Feature",
            "properties": {
                "sna": "YouBike2.0_三和龍門路口",
                "sno": 500203079,
                "available_rent_general_bikes": 4,
                "available_return_bikes": 11,
                "total_bikes": 15
            },
            "geometry": {
                "type": "Point",
                "coordinates": [
                    121.4949,
                    25.0718
                ]
            }
        },
        {
            "type": "Feature",
            "properties": {
                "sna": "YouBike2.0_元信二仁愛街口",
                "sno": 500203080,
                "available_rent_general_bikes": 2,
                "available_return_bikes": 18,
                "total_bikes": 20
            },
            "geometry": {
                "type": "Point",
                "coordinates": [
                    121.49417,
                    25.07709
                ]
            }
        },
        {
            "type": "Feature",
            "properties": {
                "sna": "YouBike2.0_力行路二段91巷口",
                "sno": 500203081,
                "available_rent_general_bikes": 2,
                "available_return_bikes": 11,
                "total_bikes": 13
            },
            "geometry": {
                "type": "Point",
                "coordinates": [
                    121.48255,
                    25.07583
                ]
            }
        },
        {
            "type": "Feature",
            "properties": {
                "sna": "YouBike2.0_永福國小(永福街72巷)",
                "sno": 500203082,
                "available_rent_general_bikes": 3,
                "available_return_bikes": 19,
                "total_bikes": 22
            },
            "geometry": {
                "type": "Point",
                "coordinates": [
                    121.47985,
                    25.07657
                ]
            }
        },
        {
            "type": "Feature",
            "properties": {
                "sna": "YouBike2.0_格致中學",
                "sno": 500203083,
                "available_rent_general_bikes": 10,
                "available_return_bikes": 12,
                "total_bikes": 22
            },
            "geometry": {
                "type": "Point",
                "coordinates": [
                    121.48907,
                    25.07403
                ]
            }
        },
        {
            "type": "Feature",
            "properties": {
                "sna": "YouBike2.0_三重派出所",
                "sno": 500203084,
                "available_rent_general_bikes": 6,
                "available_return_bikes": 8,
                "total_bikes": 14
            },
            "geometry": {
                "type": "Point",
                "coordinates": [
                    121.5023,
                    25.06395
                ]
            }
        },
        {
            "type": "Feature",
            "properties": {
                "sna": "YouBike2.0_重陽橋市民活動中心",
                "sno": 500203085,
                "available_rent_general_bikes": 3,
                "available_return_bikes": 11,
                "total_bikes": 14
            },
            "geometry": {
                "type": "Point",
                "coordinates": [
                    121.49602,
                    25.08634
                ]
            }
        },
        {
            "type": "Feature",
            "properties": {
                "sna": "YouBike2.0_二重埔市民活動中心",
                "sno": 500203086,
                "available_rent_general_bikes": 9,
                "available_return_bikes": 11,
                "total_bikes": 20
            },
            "geometry": {
                "type": "Point",
                "coordinates": [
                    121.47557,
                    25.06675
                ]
            }
        },
        {
            "type": "Feature",
            "properties": {
                "sna": "YouBike2.0_神農街/光復路二段129巷口",
                "sno": 500203087,
                "available_rent_general_bikes": 6,
                "available_return_bikes": 5,
                "total_bikes": 11
            },
            "geometry": {
                "type": "Point",
                "coordinates": [
                    121.47409,
                    25.05899
                ]
            }
        },
        {
            "type": "Feature",
            "properties": {
                "sna": "YouBike2.0_光榮國中(秀江街)",
                "sno": 500203088,
                "available_rent_general_bikes": 5,
                "available_return_bikes": 15,
                "total_bikes": 20
            },
            "geometry": {
                "type": "Point",
                "coordinates": [
                    121.49994,
                    25.07221
                ]
            }
        },
        {
            "type": "Feature",
            "properties": {
                "sna": "YouBike2.0_神農興德路口(恆美社區)",
                "sno": 500203089,
                "available_rent_general_bikes": 23,
                "available_return_bikes": 17,
                "total_bikes": 40
            },
            "geometry": {
                "type": "Point",
                "coordinates": [
                    121.47427,
                    25.05333
                ]
            }
        },
        {
            "type": "Feature",
            "properties": {
                "sna": "YouBike2.0_正義國小地下停車場",
                "sno": 500203090,
                "available_rent_general_bikes": 1,
                "available_return_bikes": 12,
                "total_bikes": 13
            },
            "geometry": {
                "type": "Point",
                "coordinates": [
                    121.49491,
                    25.06492
                ]
            }
        },
        {
            "type": "Feature",
            "properties": {
                "sna": "YouBike2.0_群光公園",
                "sno": 500203091,
                "available_rent_general_bikes": 2,
                "available_return_bikes": 10,
                "total_bikes": 12
            },
            "geometry": {
                "type": "Point",
                "coordinates": [
                    121.47404,
                    25.05604
                ]
            }
        },
        {
            "type": "Feature",
            "properties": {
                "sna": "YouBike2.0_仁信段平面停車場",
                "sno": 500203092,
                "available_rent_general_bikes": 5,
                "available_return_bikes": 7,
                "total_bikes": 12
            },
            "geometry": {
                "type": "Point",
                "coordinates": [
                    121.49629,
                    25.07914
                ]
            }
        },
        {
            "type": "Feature",
            "properties": {
                "sna": "YouBike2.0_中正北路25巷(交響院社區)",
                "sno": 500203093,
                "available_rent_general_bikes": 11,
                "available_return_bikes": 28,
                "total_bikes": 39
            },
            "geometry": {
                "type": "Point",
                "coordinates": [
                    121.49185,
                    25.06318
                ]
            }
        },
        {
            "type": "Feature",
            "properties": {
                "sna": "YouBike2.0_興穀國小",
                "sno": 500203094,
                "available_rent_general_bikes": 3,
                "available_return_bikes": 12,
                "total_bikes": 15
            },
            "geometry": {
                "type": "Point",
                "coordinates": [
                    121.47421,
                    25.04937
                ]
            }
        },
        {
            "type": "Feature",
            "properties": {
                "sna": "YouBike2.0_三重區停八停車場",
                "sno": 500203095,
                "available_rent_general_bikes": 5,
                "available_return_bikes": 7,
                "total_bikes": 12
            },
            "geometry": {
                "type": "Point",
                "coordinates": [
                    121.47621,
                    25.05365
                ]
            }
        },
        {
            "type": "Feature",
            "properties": {
                "sna": "YouBike2.0_國道車路頭街口",
                "sno": 500203096,
                "available_rent_general_bikes": 0,
                "available_return_bikes": 17,
                "total_bikes": 17
            },
            "geometry": {
                "type": "Point",
                "coordinates": [
                    121.48424,
                    25.07307
                ]
            }
        },
        {
            "type": "Feature",
            "properties": {
                "sna": "YouBike2.0_仁愛街422巷口",
                "sno": 500203097,
                "available_rent_general_bikes": 6,
                "available_return_bikes": 8,
                "total_bikes": 14
            },
            "geometry": {
                "type": "Point",
                "coordinates": [
                    121.49026,
                    25.08153
                ]
            }
        },
        {
            "type": "Feature",
            "properties": {
                "sna": "YouBike2.0_德厚公園",
                "sno": 500203098,
                "available_rent_general_bikes": 0,
                "available_return_bikes": 13,
                "total_bikes": 13
            },
            "geometry": {
                "type": "Point",
                "coordinates": [
                    121.47809,
                    25.04883
                ]
            }
        },
        {
            "type": "Feature",
            "properties": {
                "sna": "YouBike2.0_永德市民活動中心",
                "sno": 500203099,
                "available_rent_general_bikes": 2,
                "available_return_bikes": 17,
                "total_bikes": 19
            },
            "geometry": {
                "type": "Point",
                "coordinates": [
                    121.48842,
                    25.07285
                ]
            }
        },
        {
            "type": "Feature",
            "properties": {
                "sna": "YouBike2.0_龍濱公園",
                "sno": 500203100,
                "available_rent_general_bikes": 6,
                "available_return_bikes": 8,
                "total_bikes": 14
            },
            "geometry": {
                "type": "Point",
                "coordinates": [
                    121.50218,
                    25.07298
                ]
            }
        },
        {
            "type": "Feature",
            "properties": {
                "sna": "YouBike2.0_簡仔舍街(河家歡社區)",
                "sno": 500203101,
                "available_rent_general_bikes": 6,
                "available_return_bikes": 34,
                "total_bikes": 40
            },
            "geometry": {
                "type": "Point",
                "coordinates": [
                    121.48652,
                    25.05138
                ]
            }
        },
        {
            "type": "Feature",
            "properties": {
                "sna": "YouBike2.0_碧華國中(三賢街)",
                "sno": 500203102,
                "available_rent_general_bikes": 9,
                "available_return_bikes": 18,
                "total_bikes": 27
            },
            "geometry": {
                "type": "Point",
                "coordinates": [
                    121.48832,
                    25.08861
                ]
            }
        },
        {
            "type": "Feature",
            "properties": {
                "sna": "YouBike2.0_溪尾街(國道橋下)",
                "sno": 500203103,
                "available_rent_general_bikes": 1,
                "available_return_bikes": 10,
                "total_bikes": 11
            },
            "geometry": {
                "type": "Point",
                "coordinates": [
                    121.49151,
                    25.07486
                ]
            }
        },
        {
            "type": "Feature",
            "properties": {
                "sna": "YouBike2.0_重新路五段(心天匯社區)",
                "sno": 500203104,
                "available_rent_general_bikes": 4,
                "available_return_bikes": 33,
                "total_bikes": 37
            },
            "geometry": {
                "type": "Point",
                "coordinates": [
                    121.46815,
                    25.04468
                ]
            }
        },
        {
            "type": "Feature",
            "properties": {
                "sna": "YouBike2.0_興德路134號(前)",
                "sno": 500203105,
                "available_rent_general_bikes": 12,
                "available_return_bikes": 7,
                "total_bikes": 19
            },
            "geometry": {
                "type": "Point",
                "coordinates": [
                    121.47102,
                    25.05287
                ]
            }
        },
        {
            "type": "Feature",
            "properties": {
                "sna": "YouBike2.0_自強臨時平面停車場",
                "sno": 500203106,
                "available_rent_general_bikes": 5,
                "available_return_bikes": 16,
                "total_bikes": 21
            },
            "geometry": {
                "type": "Point",
                "coordinates": [
                    121.49515,
                    25.08229
                ]
            }
        },
        {
            "type": "Feature",
            "properties": {
                "sna": "YouBike2.0_仁義街26巷",
                "sno": 500203107,
                "available_rent_general_bikes": 5,
                "available_return_bikes": 12,
                "total_bikes": 17
            },
            "geometry": {
                "type": "Point",
                "coordinates": [
                    121.49811,
                    25.0774
                ]
            }
        },
        {
            "type": "Feature",
            "properties": {
                "sna": "YouBike2.0_中正北重陽路口",
                "sno": 500203108,
                "available_rent_general_bikes": 3,
                "available_return_bikes": 9,
                "total_bikes": 12
            },
            "geometry": {
                "type": "Point",
                "coordinates": [
                    121.48736,
                    25.06417
                ]
            }
        },
        {
            "type": "Feature",
            "properties": {
                "sna": "YouBike2.0_光復路一段15巷口",
                "sno": 500203109,
                "available_rent_general_bikes": 0,
                "available_return_bikes": 17,
                "total_bikes": 17
            },
            "geometry": {
                "type": "Point",
                "coordinates": [
                    121.47213,
                    25.04751
                ]
            }
        },
        {
            "type": "Feature",
            "properties": {
                "sna": "YouBike2.0_光復路一段99巷口",
                "sno": 500203111,
                "available_rent_general_bikes": 7,
                "available_return_bikes": 8,
                "total_bikes": 15
            },
            "geometry": {
                "type": "Point",
                "coordinates": [
                    121.47209,
                    25.05109
                ]
            }
        },
        {
            "type": "Feature",
            "properties": {
                "sna": "YouBike2.0_光復興德路口(東南側)",
                "sno": 500203112,
                "available_rent_general_bikes": 9,
                "available_return_bikes": 9,
                "total_bikes": 18
            },
            "geometry": {
                "type": "Point",
                "coordinates": [
                    121.4721,
                    25.05251
                ]
            }
        },
        {
            "type": "Feature",
            "properties": {
                "sna": "YouBike2.0_光復路二段42巷口",
                "sno": 500203113,
                "available_rent_general_bikes": 8,
                "available_return_bikes": 8,
                "total_bikes": 16
            },
            "geometry": {
                "type": "Point",
                "coordinates": [
                    121.47203,
                    25.05452
                ]
            }
        },
        {
            "type": "Feature",
            "properties": {
                "sna": "YouBike2.0_光復中興北街175巷口(西北側)",
                "sno": 500203114,
                "available_rent_general_bikes": 7,
                "available_return_bikes": 8,
                "total_bikes": 15
            },
            "geometry": {
                "type": "Point",
                "coordinates": [
                    121.47205,
                    25.05676
                ]
            }
        },
        {
            "type": "Feature",
            "properties": {
                "sna": "YouBike2.0_集美街58巷口(東北側)",
                "sno": 500203115,
                "available_rent_general_bikes": 10,
                "available_return_bikes": 4,
                "total_bikes": 14
            },
            "geometry": {
                "type": "Point",
                "coordinates": [
                    121.48833,
                    25.055
                ]
            }
        },
        {
            "type": "Feature",
            "properties": {
                "sna": "YouBike2.0_三和路四段73號旁",
                "sno": 500203116,
                "available_rent_general_bikes": 7,
                "available_return_bikes": 8,
                "total_bikes": 15
            },
            "geometry": {
                "type": "Point",
                "coordinates": [
                    121.48977,
                    25.07513
                ]
            }
        },
        {
            "type": "Feature",
            "properties": {
                "sna": "YouBike2.0_三信集英路口",
                "sno": 500203117,
                "available_rent_general_bikes": 0,
                "available_return_bikes": 13,
                "total_bikes": 13
            },
            "geometry": {
                "type": "Point",
                "coordinates": [
                    121.48748,
                    25.08563
                ]
            }
        },
        {
            "type": "Feature",
            "properties": {
                "sna": "YouBike2.0_慈化公園",
                "sno": 500203118,
                "available_rent_general_bikes": 0,
                "available_return_bikes": 15,
                "total_bikes": 15
            },
            "geometry": {
                "type": "Point",
                "coordinates": [
                    121.48864,
                    25.08461
                ]
            }
        },
        {
            "type": "Feature",
            "properties": {
                "sna": "YouBike2.0_三張地下停車場",
                "sno": 500203119,
                "available_rent_general_bikes": 1,
                "available_return_bikes": 18,
                "total_bikes": 19
            },
            "geometry": {
                "type": "Point",
                "coordinates": [
                    121.48981,
                    25.07054
                ]
            }
        },
        {
            "type": "Feature",
            "properties": {
                "sna": "YouBike2.0_仁愛仁和街口",
                "sno": 500203120,
                "available_rent_general_bikes": 7,
                "available_return_bikes": 8,
                "total_bikes": 15
            },
            "geometry": {
                "type": "Point",
                "coordinates": [
                    121.49569,
                    25.07354
                ]
            }
        },
        {
            "type": "Feature",
            "properties": {
                "sna": "YouBike2.0_修德國小(重陽路三段)",
                "sno": 500203121,
                "available_rent_general_bikes": 6,
                "available_return_bikes": 15,
                "total_bikes": 21
            },
            "geometry": {
                "type": "Point",
                "coordinates": [
                    121.48895,
                    25.0662
                ]
            }
        },
        {
            "type": "Feature",
            "properties": {
                "sna": "YouBike2.0_三重重陽公園",
                "sno": 500203122,
                "available_rent_general_bikes": 4,
                "available_return_bikes": 10,
                "total_bikes": 14
            },
            "geometry": {
                "type": "Point",
                "coordinates": [
                    121.48367,
                    25.05753
                ]
            }
        },
        {
            "type": "Feature",
            "properties": {
                "sna": "YouBike2.0_三和國中(自強路三段110巷)",
                "sno": 500203123,
                "available_rent_general_bikes": 9,
                "available_return_bikes": 13,
                "total_bikes": 22
            },
            "geometry": {
                "type": "Point",
                "coordinates": [
                    121.48694,
                    25.0748
                ]
            }
        },
        {
            "type": "Feature",
            "properties": {
                "sna": "YouBike2.0_頂崁街210巷28弄口",
                "sno": 500203124,
                "available_rent_general_bikes": 5,
                "available_return_bikes": 10,
                "total_bikes": 15
            },
            "geometry": {
                "type": "Point",
                "coordinates": [
                    121.47586,
                    25.06803
                ]
            }
        },
        {
            "type": "Feature",
            "properties": {
                "sna": "YouBike2.0_河邊北街100巷口",
                "sno": 500203125,
                "available_rent_general_bikes": 3,
                "available_return_bikes": 17,
                "total_bikes": 20
            },
            "geometry": {
                "type": "Point",
                "coordinates": [
                    121.50404,
                    25.07043
                ]
            }
        },
        {
            "type": "Feature",
            "properties": {
                "sna": "YouBike2.0_恩主公醫院",
                "sno": 500205001,
                "available_rent_general_bikes": 31,
                "available_return_bikes": 16,
                "total_bikes": 47
            },
            "geometry": {
                "type": "Point",
                "coordinates": [
                    121.36355,
                    24.93891
                ]
            }
        },
        {
            "type": "Feature",
            "properties": {
                "sna": "YouBike2.0_安溪國小",
                "sno": 500205002,
                "available_rent_general_bikes": 8,
                "available_return_bikes": 16,
                "total_bikes": 24
            },
            "geometry": {
                "type": "Point",
                "coordinates": [
                    121.37265,
                    24.93122
                ]
            }
        },
        {
            "type": "Feature",
            "properties": {
                "sna": "YouBike2.0_介壽國小",
                "sno": 500205003,
                "available_rent_general_bikes": 8,
                "available_return_bikes": 8,
                "total_bikes": 16
            },
            "geometry": {
                "type": "Point",
                "coordinates": [
                    121.37912,
                    24.93026
                ]
            }
        },
        {
            "type": "Feature",
            "properties": {
                "sna": "YouBike2.0_安溪國中",
                "sno": 500205004,
                "available_rent_general_bikes": 7,
                "available_return_bikes": 11,
                "total_bikes": 18
            },
            "geometry": {
                "type": "Point",
                "coordinates": [
                    121.37185,
                    24.92638
                ]
            }
        },
        {
            "type": "Feature",
            "properties": {
                "sna": "YouBike2.0_三峽國光青年社會住宅",
                "sno": 500205005,
                "available_rent_general_bikes": 12,
                "available_return_bikes": 18,
                "total_bikes": 30
            },
            "geometry": {
                "type": "Point",
                "coordinates": [
                    121.37686,
                    24.93743
                ]
            }
        },
        {
            "type": "Feature",
            "properties": {
                "sna": "YouBike2.0_三峽區公所(三峽老街)",
                "sno": 500205006,
                "available_rent_general_bikes": 2,
                "available_return_bikes": 29,
                "total_bikes": 31
            },
            "geometry": {
                "type": "Point",
                "coordinates": [
                    121.36929,
                    24.9339
                ]
            }
        },
        {
            "type": "Feature",
            "properties": {
                "sna": "YouBike2.0_中園國小",
                "sno": 500205007,
                "available_rent_general_bikes": 5,
                "available_return_bikes": 14,
                "total_bikes": 19
            },
            "geometry": {
                "type": "Point",
                "coordinates": [
                    121.3667403505291,
                    24.927562225588048
                ]
            }
        },
        {
            "type": "Feature",
            "properties": {
                "sna": "YouBike2.0_復興民生街口",
                "sno": 500205008,
                "available_rent_general_bikes": 8,
                "available_return_bikes": 13,
                "total_bikes": 21
            },
            "geometry": {
                "type": "Point",
                "coordinates": [
                    121.37339809342713,
                    24.936959752151225
                ]
            }
        },
        {
            "type": "Feature",
            "properties": {
                "sna": "YouBike2.0_三峽國中",
                "sno": 500205009,
                "available_rent_general_bikes": 12,
                "available_return_bikes": 12,
                "total_bikes": 24
            },
            "geometry": {
                "type": "Point",
                "coordinates": [
                    121.369,
                    24.9389
                ]
            }
        },
        {
            "type": "Feature",
            "properties": {
                "sna": "YouBike2.0_海洋公園",
                "sno": 500205010,
                "available_rent_general_bikes": 4,
                "available_return_bikes": 21,
                "total_bikes": 25
            },
            "geometry": {
                "type": "Point",
                "coordinates": [
                    121.37676,
                    24.94776
                ]
            }
        },
        {
            "type": "Feature",
            "properties": {
                "sna": "YouBike2.0_龍埔國小",
                "sno": 500205011,
                "available_rent_general_bikes": 10,
                "available_return_bikes": 24,
                "total_bikes": 34
            },
            "geometry": {
                "type": "Point",
                "coordinates": [
                    121.37676,
                    24.94104
                ]
            }
        },
        {
            "type": "Feature",
            "properties": {
                "sna": "YouBike2.0_國立臺北大學(三峽校區)",
                "sno": 500205012,
                "available_rent_general_bikes": 11,
                "available_return_bikes": 50,
                "total_bikes": 61
            },
            "geometry": {
                "type": "Point",
                "coordinates": [
                    121.3729,
                    24.94594
                ]
            }
        },
        {
            "type": "Feature",
            "properties": {
                "sna": "YouBike2.0_三鶯國民運動中心",
                "sno": 500205013,
                "available_rent_general_bikes": 8,
                "available_return_bikes": 8,
                "total_bikes": 16
            },
            "geometry": {
                "type": "Point",
                "coordinates": [
                    121.36858,
                    24.93697
                ]
            }
        },
        {
            "type": "Feature",
            "properties": {
                "sna": "YouBike2.0_臺北大學(音律資訊大樓)",
                "sno": 500205014,
                "available_rent_general_bikes": 21,
                "available_return_bikes": 30,
                "total_bikes": 51
            },
            "geometry": {
                "type": "Point",
                "coordinates": [
                    121.36992,
                    24.94278
                ]
            }
        },
        {
            "type": "Feature",
            "properties": {
                "sna": "YouBike2.0_臺北大學體育館",
                "sno": 500205015,
                "available_rent_general_bikes": 6,
                "available_return_bikes": 11,
                "total_bikes": 17
            },
            "geometry": {
                "type": "Point",
                "coordinates": [
                    121.36688,
                    24.93974
                ]
            }
        },
        {
            "type": "Feature",
            "properties": {
                "sna": "YouBike2.0_中華愛國路口",
                "sno": 500205016,
                "available_rent_general_bikes": 3,
                "available_return_bikes": 5,
                "total_bikes": 8
            },
            "geometry": {
                "type": "Point",
                "coordinates": [
                    121.37462,
                    24.9327
                ]
            }
        },
        {
            "type": "Feature",
            "properties": {
                "sna": "YouBike2.0_中山科學研究院",
                "sno": 500205017,
                "available_rent_general_bikes": 1,
                "available_return_bikes": 8,
                "total_bikes": 9
            },
            "geometry": {
                "type": "Point",
                "coordinates": [
                    121.35512,
                    24.90328
                ]
            }
        },
        {
            "type": "Feature",
            "properties": {
                "sna": "YouBike2.0_學成大義路口(學成路一)",
                "sno": 500205018,
                "available_rent_general_bikes": 5,
                "available_return_bikes": 4,
                "total_bikes": 9
            },
            "geometry": {
                "type": "Point",
                "coordinates": [
                    121.37803,
                    24.94477
                ]
            }
        },
        {
            "type": "Feature",
            "properties": {
                "sna": "YouBike2.0_龍埔三樹路98巷口",
                "sno": 500205019,
                "available_rent_general_bikes": 12,
                "available_return_bikes": 9,
                "total_bikes": 21
            },
            "geometry": {
                "type": "Point",
                "coordinates": [
                    121.38393,
                    24.93989
                ]
            }
        },
        {
            "type": "Feature",
            "properties": {
                "sna": "YouBike2.0_三峽區礁溪行政中心",
                "sno": 500205020,
                "available_rent_general_bikes": 6,
                "available_return_bikes": 12,
                "total_bikes": 18
            },
            "geometry": {
                "type": "Point",
                "coordinates": [
                    121.37592,
                    24.92843
                ]
            }
        },
        {
            "type": "Feature",
            "properties": {
                "sna": "YouBike2.0_新北市客家文化園區",
                "sno": 500205021,
                "available_rent_general_bikes": 9,
                "available_return_bikes": 10,
                "total_bikes": 19
            },
            "geometry": {
                "type": "Point",
                "coordinates": [
                    121.36034,
                    24.94207
                ]
            }
        },
        {
            "type": "Feature",
            "properties": {
                "sna": "YouBike2.0_龍恩公園",
                "sno": 500205022,
                "available_rent_general_bikes": 14,
                "available_return_bikes": 12,
                "total_bikes": 26
            },
            "geometry": {
                "type": "Point",
                "coordinates": [
                    121.37052,
                    24.94135
                ]
            }
        },
        {
            "type": "Feature",
            "properties": {
                "sna": "YouBike2.0_龍埔公園",
                "sno": 500205023,
                "available_rent_general_bikes": 4,
                "available_return_bikes": 24,
                "total_bikes": 28
            },
            "geometry": {
                "type": "Point",
                "coordinates": [
                    121.3742,
                    24.93841
                ]
            }
        },
        {
            "type": "Feature",
            "properties": {
                "sna": "YouBike2.0_大智中山路口",
                "sno": 500205024,
                "available_rent_general_bikes": 4,
                "available_return_bikes": 15,
                "total_bikes": 19
            },
            "geometry": {
                "type": "Point",
                "coordinates": [
                    121.36084,
                    24.93782
                ]
            }
        },
        {
            "type": "Feature",
            "properties": {
                "sna": "YouBike2.0_明德高中",
                "sno": 500205025,
                "available_rent_general_bikes": 32,
                "available_return_bikes": 14,
                "total_bikes": 46
            },
            "geometry": {
                "type": "Point",
                "coordinates": [
                    121.36472,
                    24.90742
                ]
            }
        },
        {
            "type": "Feature",
            "properties": {
                "sna": "YouBike2.0_學府大學路口",
                "sno": 500205026,
                "available_rent_general_bikes": 5,
                "available_return_bikes": 13,
                "total_bikes": 18
            },
            "geometry": {
                "type": "Point",
                "coordinates": [
                    121.3718,
                    24.94779
                ]
            }
        },
        {
            "type": "Feature",
            "properties": {
                "sna": "YouBike2.0_學府大德路口",
                "sno": 500205027,
                "available_rent_general_bikes": 3,
                "available_return_bikes": 9,
                "total_bikes": 12
            },
            "geometry": {
                "type": "Point",
                "coordinates": [
                    121.37362,
                    24.94864
                ]
            }
        },
        {
            "type": "Feature",
            "properties": {
                "sna": "YouBike2.0_大德學勤路口",
                "sno": 500205028,
                "available_rent_general_bikes": 3,
                "available_return_bikes": 12,
                "total_bikes": 15
            },
            "geometry": {
                "type": "Point",
                "coordinates": [
                    121.37506,
                    24.94634
                ]
            }
        },
        {
            "type": "Feature",
            "properties": {
                "sna": "YouBike2.0_學勤大觀路口",
                "sno": 500205029,
                "available_rent_general_bikes": 1,
                "available_return_bikes": 14,
                "total_bikes": 15
            },
            "geometry": {
                "type": "Point",
                "coordinates": [
                    121.3743,
                    24.94584
                ]
            }
        },
        {
            "type": "Feature",
            "properties": {
                "sna": "YouBike2.0_學成大德路口",
                "sno": 500205030,
                "available_rent_general_bikes": 6,
                "available_return_bikes": 7,
                "total_bikes": 13
            },
            "geometry": {
                "type": "Point",
                "coordinates": [
                    121.37634,
                    24.94334
                ]
            }
        },
        {
            "type": "Feature",
            "properties": {
                "sna": "YouBike2.0_三樹大德路口",
                "sno": 500205031,
                "available_rent_general_bikes": 1,
                "available_return_bikes": 14,
                "total_bikes": 15
            },
            "geometry": {
                "type": "Point",
                "coordinates": [
                    121.37871,
                    24.94163
                ]
            }
        },
        {
            "type": "Feature",
            "properties": {
                "sna": "YouBike2.0_大義三樹路口",
                "sno": 500205032,
                "available_rent_general_bikes": 4,
                "available_return_bikes": 10,
                "total_bikes": 14
            },
            "geometry": {
                "type": "Point",
                "coordinates": [
                    121.37899,
                    24.94357
                ]
            }
        },
        {
            "type": "Feature",
            "properties": {
                "sna": "YouBike2.0_中園國小(民權街)",
                "sno": 500205033,
                "available_rent_general_bikes": 1,
                "available_return_bikes": 18,
                "total_bikes": 19
            },
            "geometry": {
                "type": "Point",
                "coordinates": [
                    121.36767,
                    24.92853
                ]
            }
        },
        {
            "type": "Feature",
            "properties": {
                "sna": "YouBike2.0_三峽國小(中山路)",
                "sno": 500205034,
                "available_rent_general_bikes": 6,
                "available_return_bikes": 15,
                "total_bikes": 21
            },
            "geometry": {
                "type": "Point",
                "coordinates": [
                    121.36779,
                    24.93474
                ]
            }
        },
        {
            "type": "Feature",
            "properties": {
                "sna": "YouBike2.0_臺北大學宿舍(學成路)",
                "sno": 500205035,
                "available_rent_general_bikes": 10,
                "available_return_bikes": 8,
                "total_bikes": 18
            },
            "geometry": {
                "type": "Point",
                "coordinates": [
                    121.36856,
                    24.94092
                ]
            }
        },
        {
            "type": "Feature",
            "properties": {
                "sna": "YouBike2.0_國際二國學街口",
                "sno": 500205036,
                "available_rent_general_bikes": 6,
                "available_return_bikes": 5,
                "total_bikes": 11
            },
            "geometry": {
                "type": "Point",
                "coordinates": [
                    121.37233,
                    24.94319
                ]
            }
        },
        {
            "type": "Feature",
            "properties": {
                "sna": "YouBike2.0_大學學成路口",
                "sno": 500205037,
                "available_rent_general_bikes": 4,
                "available_return_bikes": 7,
                "total_bikes": 11
            },
            "geometry": {
                "type": "Point",
                "coordinates": [
                    121.37521,
                    24.94298
                ]
            }
        },
        {
            "type": "Feature",
            "properties": {
                "sna": "YouBike2.0_國慶三樹路口",
                "sno": 500205038,
                "available_rent_general_bikes": 2,
                "available_return_bikes": 17,
                "total_bikes": 19
            },
            "geometry": {
                "type": "Point",
                "coordinates": [
                    121.37738,
                    24.93826
                ]
            }
        },
        {
            "type": "Feature",
            "properties": {
                "sna": "YouBike2.0_三樹大學路口",
                "sno": 500205039,
                "available_rent_general_bikes": 5,
                "available_return_bikes": 9,
                "total_bikes": 14
            },
            "geometry": {
                "type": "Point",
                "coordinates": [
                    121.37816,
                    24.93951
                ]
            }
        },
        {
            "type": "Feature",
            "properties": {
                "sna": "YouBike2.0_薇多綠雅社區(警衛亭)",
                "sno": 500205040,
                "available_rent_general_bikes": 2,
                "available_return_bikes": 17,
                "total_bikes": 19
            },
            "geometry": {
                "type": "Point",
                "coordinates": [
                    121.35816,
                    24.90883
                ]
            }
        },
        {
            "type": "Feature",
            "properties": {
                "sna": "YouBike2.0_薇多綠雅社區(活動中心)",
                "sno": 500205041,
                "available_rent_general_bikes": 12,
                "available_return_bikes": 3,
                "total_bikes": 15
            },
            "geometry": {
                "type": "Point",
                "coordinates": [
                    121.35727,
                    24.90955
                ]
            }
        },
        {
            "type": "Feature",
            "properties": {
                "sna": "YouBike2.0_溪東市民活動中心",
                "sno": 500205042,
                "available_rent_general_bikes": 4,
                "available_return_bikes": 16,
                "total_bikes": 20
            },
            "geometry": {
                "type": "Point",
                "coordinates": [
                    121.40753,
                    24.93192
                ]
            }
        },
        {
            "type": "Feature",
            "properties": {
                "sna": "YouBike2.0_光明路69巷口",
                "sno": 500205043,
                "available_rent_general_bikes": 1,
                "available_return_bikes": 9,
                "total_bikes": 10
            },
            "geometry": {
                "type": "Point",
                "coordinates": [
                    121.37726,
                    24.92918
                ]
            }
        },
        {
            "type": "Feature",
            "properties": {
                "sna": "YouBike2.0_大同路270巷口",
                "sno": 500205044,
                "available_rent_general_bikes": 3,
                "available_return_bikes": 11,
                "total_bikes": 14
            },
            "geometry": {
                "type": "Point",
                "coordinates": [
                    121.36551,
                    24.92526
                ]
            }
        },
        {
            "type": "Feature",
            "properties": {
                "sna": "YouBike2.0_龍埔自行車道(民生街1巷)",
                "sno": 500205045,
                "available_rent_general_bikes": 4,
                "available_return_bikes": 14,
                "total_bikes": 18
            },
            "geometry": {
                "type": "Point",
                "coordinates": [
                    121.37824,
                    24.93455
                ]
            }
        },
        {
            "type": "Feature",
            "properties": {
                "sna": "YouBike2.0_龍埔介壽路口",
                "sno": 500205046,
                "available_rent_general_bikes": 4,
                "available_return_bikes": 7,
                "total_bikes": 11
            },
            "geometry": {
                "type": "Point",
                "coordinates": [
                    121.39008,
                    24.93513
                ]
            }
        },
        {
            "type": "Feature",
            "properties": {
                "sna": "YouBike2.0_國慶學成路口",
                "sno": 500205047,
                "available_rent_general_bikes": 7,
                "available_return_bikes": 3,
                "total_bikes": 10
            },
            "geometry": {
                "type": "Point",
                "coordinates": [
                    121.37397,
                    24.94095
                ]
            }
        },
        {
            "type": "Feature",
            "properties": {
                "sna": "YouBike2.0_中園街福隆宮",
                "sno": 500205048,
                "available_rent_general_bikes": 2,
                "available_return_bikes": 8,
                "total_bikes": 10
            },
            "geometry": {
                "type": "Point",
                "coordinates": [
                    121.36717,
                    24.92239
                ]
            }
        },
        {
            "type": "Feature",
            "properties": {
                "sna": "YouBike2.0_臺北大學蓮池",
                "sno": 500205049,
                "available_rent_general_bikes": 12,
                "available_return_bikes": 12,
                "total_bikes": 24
            },
            "geometry": {
                "type": "Point",
                "coordinates": [
                    121.37117,
                    24.94723
                ]
            }
        },
        {
            "type": "Feature",
            "properties": {
                "sna": "YouBike2.0_臺北大學商學院(尋鳶大道)",
                "sno": 500205050,
                "available_rent_general_bikes": 5,
                "available_return_bikes": 6,
                "total_bikes": 11
            },
            "geometry": {
                "type": "Point",
                "coordinates": [
                    121.37249,
                    24.94557
                ]
            }
        },
        {
            "type": "Feature",
            "properties": {
                "sna": "YouBike2.0_臺北大學商學院(法商大道)",
                "sno": 500205051,
                "available_rent_general_bikes": 3,
                "available_return_bikes": 20,
                "total_bikes": 23
            },